{
    "Зар заман ақындары (19 ғасырдың ортасы - 19 ғасырдың аяғы)": [
      {
        "name": "Дулат Бабатайұлы",
        "coordinates": { "lat": 47.097, "lng": 81.621 },
        "lived": "1802–1874"
      },
      {
        "name": "Шортанбай Қанайұлы",
        "coordinates": { "lat": 50.4483, "lng": 75.7124 },
        "lived": "1818–1881"
      },
      {
        "name": "Мұрат Мөңкеұлы",
        "coordinates": { "lat": 48.138, "lng": 46.818 },
        "lived": "1843–1906"
      }
    ],
    "19 ғасырдағы ақын-жазушылар": [
      {
        "name": "Абай Құнанбайұлы",
        "coordinates": { "lat": 49.6316, "lng": 82.6061 },
        "lived": "1845–1904"
      },
      {
        "name": "Ыбырай Алтынсарин",
        "coordinates": { "lat": 53.2192, "lng": 63.6354 },
        "lived": "1841–1889"
      },
      {
        "name": "Махамбет Өтемісұлы",
        "coordinates": { "lat": 47.1111, "lng": 51.9189 },
        "lived": "1804–1846"
      },
      {
        "name": "Шоқан Уәлиханов",
        "coordinates": { "lat": 53.2172, "lng": 76.8996 },
        "lived": "1835–1865"
      }
    ],
    "20 ғасырдың басындағы ақын-жазушылар": [
      {
        "name": "Ахмет Байтұрсынұлы",
        "coordinates": { "lat": 52.5232, "lng": 61.7711 },
        "lived": "1872–1937"
      },
      {
        "name": "Міржақып Дулатұлы",
        "coordinates": { "lat": 53.509, "lng": 63.619 },
        "lived": "1885–1935"
      },
      {
        "name": "Сәкен Сейфуллин",
        "coordinates": { "lat": 50.2884, "lng": 73.473 },
        "lived": "1894–1938"
      },
      {
        "name": "Мағжан Жұмабаев",
        "coordinates": { "lat": 54.8664, "lng": 69.1723 },
        "lived": "1893–1938"
      },
      {
        "name": "Жүсіпбек Аймауытов",
        "coordinates": { "lat": 50.3547, "lng": 78.9215 },
        "lived": "1889–1931"
      },
      {
        "name": "Шәкәрім Құдайбердіұлы",
        "coordinates": { "lat": 49.6316, "lng": 82.6061 },
        "lived": "1858–1931"
      }
    ],
    "Тәуелсіздік кезеңі (20 ғасырдың соңы - 21 ғасыр)": [
      {
        "name": "Оралхан Бөкей",
        "coordinates": { "lat": 49.5467, "lng": 86.0332 },
        "lived": "1943–1993"
      },
      {
        "name": "Шерхан Мұртаза",
        "coordinates": { "lat": 42.9256, "lng": 71.3644 },
        "lived": "1932–2018"
      },
      {
        "name": "Қадыр Мырза Әли",
        "coordinates": { "lat": 49.6111, "lng": 50.2747 },
        "lived": "1935–2011"
      },
      {
        "name": "Фариза Оңғарсынова",
        "coordinates": { "lat": 47.1129, "lng": 51.8773 },
        "lived": "1939–2014"
      }
    ]
  }
  